[
  {
    "city": "Baku",
    "lat": "40.3667",
    "lng": "49.8352",
    "country": "Azerbaijan",
    "iso2": "AZ",
    "admin_name": "Bakı",
    "capital": "primary",
    "population": "2300500",
    "population_proper": "2300500"
  },
  {
    "city": "Sumqayıt",
    "lat": "40.5917",
    "lng": "49.6397",
    "country": "Azerbaijan",
    "iso2": "AZ",
    "admin_name": "Sumqayıt",
    "capital": "admin",
    "population": "341200",
    "population_proper": "341200"
  },
  {
    "city": "Gəncə",
    "lat": "40.6828",
    "lng": "46.3606",
    "country": "Azerbaijan",
    "iso2": "AZ",
    "admin_name": "Gəncə",
    "capital": "admin",
    "population": "331400",
    "population_proper": "331400"
  },
  {
    "city": "Ağcabədi",
    "lat": "40.0528",
    "lng": "47.4614",
    "country": "Azerbaijan",
    "iso2": "AZ",
    "admin_name": "Ağcabədi",
    "capital": "admin",
    "population": "136000",
    "population_proper": "136000"
  },
  {
    "city": "Mingəçevir",
    "lat": "40.7700",
    "lng": "47.0489",
    "country": "Azerbaijan",
    "iso2": "AZ",
    "admin_name": "Mingəçevir",
    "capital": "admin",
    "population": "106100",
    "population_proper": "106100"
  },
  {
    "city": "Xırdalan",
    "lat": "40.4486",
    "lng": "49.7564",
    "country": "Azerbaijan",
    "iso2": "AZ",
    "admin_name": "Abşeron",
    "capital": "admin",
    "population": "100900",
    "population_proper": "100900"
  },
  {
    "city": "Naxçıvan",
    "lat": "39.2089",
    "lng": "45.4122",
    "country": "Azerbaijan",
    "iso2": "AZ",
    "admin_name": "Naxçıvan",
    "capital": "admin",
    "population": "95100",
    "population_proper": "95100"
  },
  {
    "city": "Qaraçuxur",
    "lat": "40.3967",
    "lng": "49.9736",
    "country": "Azerbaijan",
    "iso2": "AZ",
    "admin_name": "Bakı",
    "capital": "",
    "population": "85900",
    "population_proper": "85900"
  },
  {
    "city": "Hövsan",
    "lat": "40.3744",
    "lng": "50.0853",
    "country": "Azerbaijan",
    "iso2": "AZ",
    "admin_name": "Bakı",
    "capital": "",
    "population": "85000",
    "population_proper": "85000"
  },
  {
    "city": "Bakıxanov",
    "lat": "40.4217",
    "lng": "49.9644",
    "country": "Azerbaijan",
    "iso2": "AZ",
    "admin_name": "Bakı",
    "capital": "",
    "population": "71600",
    "population_proper": "71600"
  },
  {
    "city": "Şirvan",
    "lat": "39.9323",
    "lng": "48.9203",
    "country": "Azerbaijan",
    "iso2": "AZ",
    "admin_name": "Şirvan",
    "capital": "",
    "population": "70684",
    "population_proper": "70684"
  },
  {
    "city": "Şəki",
    "lat": "41.2000",
    "lng": "47.1667",
    "country": "Azerbaijan",
    "iso2": "AZ",
    "admin_name": "Şəki",
    "capital": "admin",
    "population": "68360",
    "population_proper": "68360"
  },
  {
    "city": "Yevlax",
    "lat": "40.6172",
    "lng": "47.1500",
    "country": "Azerbaijan",
    "iso2": "AZ",
    "admin_name": "Yevlax",
    "capital": "admin",
    "population": "59036",
    "population_proper": "59036"
  },
  {
    "city": "Şatrovka",
    "lat": "39.9319",
    "lng": "48.9203",
    "country": "Azerbaijan",
    "iso2": "AZ",
    "admin_name": "Salyan",
    "capital": "",
    "population": "58253",
    "population_proper": "58253"
  },
  {
    "city": "M.Ə. Rəsulzadə",
    "lat": "40.4344",
    "lng": "49.8336",
    "country": "Azerbaijan",
    "iso2": "AZ",
    "admin_name": "Bakı",
    "capital": "",
    "population": "51800",
    "population_proper": "51800"
  },
  {
    "city": "Lənkəran",
    "lat": "38.7536",
    "lng": "48.8511",
    "country": "Azerbaijan",
    "iso2": "AZ",
    "admin_name": "Lənkəran",
    "capital": "admin",
    "population": "51300",
    "population_proper": "51300"
  },
  {
    "city": "Xankəndi",
    "lat": "39.8153",
    "lng": "46.7519",
    "country": "Azerbaijan",
    "iso2": "AZ",
    "admin_name": "Xankəndi",
    "capital": "",
    "population": "49848",
    "population_proper": "49848"
  },
  {
    "city": "Biləcəri",
    "lat": "40.4314",
    "lng": "49.8081",
    "country": "Azerbaijan",
    "iso2": "AZ",
    "admin_name": "Bakı",
    "capital": "",
    "population": "45008",
    "population_proper": "45008"
  },
  {
    "city": "Maştağa",
    "lat": "40.5328",
    "lng": "50.0039",
    "country": "Azerbaijan",
    "iso2": "AZ",
    "admin_name": "Bakı",
    "capital": "",
    "population": "43700",
    "population_proper": "43700"
  },
  {
    "city": "Qəzyan",
    "lat": "39.2914",
    "lng": "46.6689",
    "country": "Azerbaijan",
    "iso2": "AZ",
    "admin_name": "Qubadlı",
    "capital": "",
    "population": "42288",
    "population_proper": "74"
  },
  {
    "city": "Şəmkir",
    "lat": "40.8297",
    "lng": "46.0189",
    "country": "Azerbaijan",
    "iso2": "AZ",
    "admin_name": "Şəmkir",
    "capital": "admin",
    "population": "40600",
    "population_proper": "40600"
  },
  {
    "city": "Xaçmaz",
    "lat": "41.4708",
    "lng": "48.8097",
    "country": "Azerbaijan",
    "iso2": "AZ",
    "admin_name": "Xaçmaz",
    "capital": "admin",
    "population": "39900",
    "population_proper": "39900"
  },
  {
    "city": "Bərdə",
    "lat": "40.3744",
    "lng": "47.1267",
    "country": "Azerbaijan",
    "iso2": "AZ",
    "admin_name": "Bərdə",
    "capital": "admin",
    "population": "38500",
    "population_proper": "38500"
  },
  {
    "city": "Binəqədi",
    "lat": "40.4661",
    "lng": "49.8278",
    "country": "Azerbaijan",
    "iso2": "AZ",
    "admin_name": "Bakı",
    "capital": "",
    "population": "37100",
    "population_proper": "37100"
  },
  {
    "city": "Göyçay",
    "lat": "40.6531",
    "lng": "47.7406",
    "country": "Azerbaijan",
    "iso2": "AZ",
    "admin_name": "Göyçay",
    "capital": "admin",
    "population": "36200",
    "population_proper": "36200"
  },
  {
    "city": "Lökbatan",
    "lat": "40.3272",
    "lng": "49.7300",
    "country": "Azerbaijan",
    "iso2": "AZ",
    "admin_name": "Bakı",
    "capital": "",
    "population": "35523",
    "population_proper": "35523"
  },
  {
    "city": "Qazax",
    "lat": "41.0933",
    "lng": "45.3661",
    "country": "Azerbaijan",
    "iso2": "AZ",
    "admin_name": "Qazax",
    "capital": "admin",
    "population": "35102",
    "population_proper": "35102"
  },
  {
    "city": "Buzovna",
    "lat": "40.5161",
    "lng": "50.1164",
    "country": "Azerbaijan",
    "iso2": "AZ",
    "admin_name": "Bakı",
    "capital": "",
    "population": "31500",
    "population_proper": "31500"
  },
  {
    "city": "imişli",
    "lat": "39.8697",
    "lng": "48.0600",
    "country": "Azerbaijan",
    "iso2": "AZ",
    "admin_name": "imişli",
    "capital": "admin",
    "population": "31310",
    "population_proper": "31310"
  },
  {
    "city": "Zaqatala",
    "lat": "41.6336",
    "lng": "46.6433",
    "country": "Azerbaijan",
    "iso2": "AZ",
    "admin_name": "Zaqatala",
    "capital": "admin",
    "population": "31300",
    "population_proper": "31300"
  },
  {
    "city": "Sabirabad",
    "lat": "40.0128",
    "lng": "48.4789",
    "country": "Azerbaijan",
    "iso2": "AZ",
    "admin_name": "Sabirabad",
    "capital": "admin",
    "population": "30918",
    "population_proper": "30918"
  },
  {
    "city": "Salyan",
    "lat": "39.5950",
    "lng": "48.9792",
    "country": "Azerbaijan",
    "iso2": "AZ",
    "admin_name": "Salyan",
    "capital": "admin",
    "population": "30396",
    "population_proper": "30396"
  },
  {
    "city": "Əmircan",
    "lat": "40.4264",
    "lng": "49.9836",
    "country": "Azerbaijan",
    "iso2": "AZ",
    "admin_name": "Bakı",
    "capital": "",
    "population": "29800",
    "population_proper": "29800"
  },
  {
    "city": "Ağdaş",
    "lat": "40.6500",
    "lng": "47.4761",
    "country": "Azerbaijan",
    "iso2": "AZ",
    "admin_name": "Ağdaş",
    "capital": "admin",
    "population": "29600",
    "population_proper": "29600"
  },
  {
    "city": "Aşağı Göycəli",
    "lat": "41.1158",
    "lng": "45.4853",
    "country": "Azerbaijan",
    "iso2": "AZ",
    "admin_name": "Ağstafa",
    "capital": "",
    "population": "28000",
    "population_proper": "28000"
  },
  {
    "city": "Binə",
    "lat": "40.4539",
    "lng": "50.0764",
    "country": "Azerbaijan",
    "iso2": "AZ",
    "admin_name": "Bakı",
    "capital": "",
    "population": "26395",
    "population_proper": "26395"
  },
  {
    "city": "Cəlilabad",
    "lat": "39.2089",
    "lng": "48.4972",
    "country": "Azerbaijan",
    "iso2": "AZ",
    "admin_name": "Cəlilabad",
    "capital": "admin",
    "population": "25846",
    "population_proper": "25846"
  },
  {
    "city": "Göygöl",
    "lat": "40.5905",
    "lng": "46.3239",
    "country": "Azerbaijan",
    "iso2": "AZ",
    "admin_name": "Göygöl",
    "capital": "admin",
    "population": "25758",
    "population_proper": "25758"
  },
  {
    "city": "Keşlə",
    "lat": "40.3978",
    "lng": "49.8986",
    "country": "Azerbaijan",
    "iso2": "AZ",
    "admin_name": "Bakı",
    "capital": "",
    "population": "25626",
    "population_proper": "25626"
  },
  {
    "city": "Mərdəkan",
    "lat": "40.4922",
    "lng": "50.1389",
    "country": "Azerbaijan",
    "iso2": "AZ",
    "admin_name": "Bakı",
    "capital": "",
    "population": "25232",
    "population_proper": "25232"
  },
  {
    "city": "Şamaxı",
    "lat": "40.6303",
    "lng": "48.6414",
    "country": "Azerbaijan",
    "iso2": "AZ",
    "admin_name": "Şamaxı",
    "capital": "",
    "population": "24681",
    "population_proper": "24681"
  },
  {
    "city": "Biləsuvar",
    "lat": "39.4583",
    "lng": "48.5450",
    "country": "Azerbaijan",
    "iso2": "AZ",
    "admin_name": "Biləsuvar",
    "capital": "admin",
    "population": "22800",
    "population_proper": "20098"
  },
  {
    "city": "Hacıqabul",
    "lat": "40.0433",
    "lng": "48.9356",
    "country": "Azerbaijan",
    "iso2": "AZ",
    "admin_name": "Hacıqabul",
    "capital": "admin",
    "population": "21504",
    "population_proper": "21504"
  },
  {
    "city": "Quba",
    "lat": "41.3597",
    "lng": "48.5125",
    "country": "Azerbaijan",
    "iso2": "AZ",
    "admin_name": "Quba",
    "capital": "admin",
    "population": "20791",
    "population_proper": "20791"
  },
  {
    "city": "ismayıllı",
    "lat": "40.7900",
    "lng": "48.1519",
    "country": "Azerbaijan",
    "iso2": "AZ",
    "admin_name": "ismayıllı",
    "capital": "admin",
    "population": "20660",
    "population_proper": "20660"
  },
  {
    "city": "Ağsu",
    "lat": "40.5692",
    "lng": "48.4008",
    "country": "Azerbaijan",
    "iso2": "AZ",
    "admin_name": "Ağsu",
    "capital": "admin",
    "population": "20200",
    "population_proper": "20200"
  },
  {
    "city": "Ağstafa",
    "lat": "41.1189",
    "lng": "45.4539",
    "country": "Azerbaijan",
    "iso2": "AZ",
    "admin_name": "Ağstafa",
    "capital": "admin",
    "population": "20200",
    "population_proper": "20200"
  },
  {
    "city": "Siyəzən",
    "lat": "41.0761",
    "lng": "49.1139",
    "country": "Azerbaijan",
    "iso2": "AZ",
    "admin_name": "Siyəzən",
    "capital": "admin",
    "population": "18655",
    "population_proper": "18655"
  },
  {
    "city": "Saatlı",
    "lat": "39.9311",
    "lng": "48.3697",
    "country": "Azerbaijan",
    "iso2": "AZ",
    "admin_name": "Saatlı",
    "capital": "admin",
    "population": "17900",
    "population_proper": "17900"
  },
  {
    "city": "Füzuli",
    "lat": "39.6003",
    "lng": "47.1431",
    "country": "Azerbaijan",
    "iso2": "AZ",
    "admin_name": "Füzuli",
    "capital": "admin",
    "population": "17500",
    "population_proper": "17500"
  },
  {
    "city": "Astara",
    "lat": "38.4561",
    "lng": "48.8786",
    "country": "Azerbaijan",
    "iso2": "AZ",
    "admin_name": "Astara",
    "capital": "admin",
    "population": "16800",
    "population_proper": "16800"
  },
  {
    "city": "Qusar",
    "lat": "41.4264",
    "lng": "48.4356",
    "country": "Azerbaijan",
    "iso2": "AZ",
    "admin_name": "Qusar",
    "capital": "admin",
    "population": "16500",
    "population_proper": "16500"
  },
  {
    "city": "Kürdəmir",
    "lat": "40.3383",
    "lng": "48.1608",
    "country": "Azerbaijan",
    "iso2": "AZ",
    "admin_name": "Kürdəmir",
    "capital": "admin",
    "population": "15385",
    "population_proper": "15385"
  },
  {
    "city": "Masallı",
    "lat": "39.0342",
    "lng": "48.6656",
    "country": "Azerbaijan",
    "iso2": "AZ",
    "admin_name": "Masallı",
    "capital": "admin",
    "population": "14746",
    "population_proper": "14746"
  },
  {
    "city": "Ucar",
    "lat": "40.5183",
    "lng": "47.6542",
    "country": "Azerbaijan",
    "iso2": "AZ",
    "admin_name": "Ucar",
    "capital": "admin",
    "population": "14273",
    "population_proper": "14273"
  },
  {
    "city": "Neftçala",
    "lat": "39.3586",
    "lng": "49.2469",
    "country": "Azerbaijan",
    "iso2": "AZ",
    "admin_name": "Neftçala",
    "capital": "admin",
    "population": "14241",
    "population_proper": "14241"
  },
  {
    "city": "Tovuz",
    "lat": "40.9922",
    "lng": "45.6289",
    "country": "Azerbaijan",
    "iso2": "AZ",
    "admin_name": "Tovuz",
    "capital": "admin",
    "population": "13700",
    "population_proper": "13520"
  },
  {
    "city": "Tərtər",
    "lat": "40.3450",
    "lng": "46.9289",
    "country": "Azerbaijan",
    "iso2": "AZ",
    "admin_name": "Tərtər",
    "capital": "admin",
    "population": "12563",
    "population_proper": "12563"
  },
  {
    "city": "Culfa",
    "lat": "38.9558",
    "lng": "45.6308",
    "country": "Azerbaijan",
    "iso2": "AZ",
    "admin_name": "Culfa",
    "capital": "admin",
    "population": "12500",
    "population_proper": "12500"
  },
  {
    "city": "Beyləqan",
    "lat": "39.7756",
    "lng": "47.6186",
    "country": "Azerbaijan",
    "iso2": "AZ",
    "admin_name": "Beyləqan",
    "capital": "admin",
    "population": "12263",
    "population_proper": "12263"
  },
  {
    "city": "Qax",
    "lat": "41.4225",
    "lng": "46.9242",
    "country": "Azerbaijan",
    "iso2": "AZ",
    "admin_name": "Qax",
    "capital": "admin",
    "population": "11415",
    "population_proper": "11415"
  },
  {
    "city": "Daşkəsən",
    "lat": "40.5244",
    "lng": "46.1069",
    "country": "Azerbaijan",
    "iso2": "AZ",
    "admin_name": "Daşkəsən",
    "capital": "admin",
    "population": "10700",
    "population_proper": "10566"
  },
  {
    "city": "Ordubad",
    "lat": "38.9081",
    "lng": "46.0278",
    "country": "Azerbaijan",
    "iso2": "AZ",
    "admin_name": "Ordubad",
    "capital": "admin",
    "population": "10372",
    "population_proper": "10372"
  },
  {
    "city": "Samux",
    "lat": "40.7700",
    "lng": "46.4111",
    "country": "Azerbaijan",
    "iso2": "AZ",
    "admin_name": "Samux",
    "capital": "admin",
    "population": "10228",
    "population_proper": "10228"
  },
  {
    "city": "Naftalan",
    "lat": "40.5067",
    "lng": "46.8250",
    "country": "Azerbaijan",
    "iso2": "AZ",
    "admin_name": "Naftalan",
    "capital": "admin",
    "population": "10100",
    "population_proper": "10100"
  },
  {
    "city": "Gədəbəy",
    "lat": "40.5656",
    "lng": "45.8161",
    "country": "Azerbaijan",
    "iso2": "AZ",
    "admin_name": "Gədəbəy",
    "capital": "admin",
    "population": "8657",
    "population_proper": "5049"
  },
  {
    "city": "Zərdab",
    "lat": "40.2183",
    "lng": "47.7083",
    "country": "Azerbaijan",
    "iso2": "AZ",
    "admin_name": "Zərdab",
    "capital": "admin",
    "population": "8450",
    "population_proper": "8450"
  },
  {
    "city": "Balakən",
    "lat": "41.7258",
    "lng": "46.4083",
    "country": "Azerbaijan",
    "iso2": "AZ",
    "admin_name": "Balakən",
    "capital": "admin",
    "population": "8134",
    "population_proper": "1815"
  },
  {
    "city": "Yardımlı",
    "lat": "38.9206",
    "lng": "48.2372",
    "country": "Azerbaijan",
    "iso2": "AZ",
    "admin_name": "Yardımlı",
    "capital": "admin",
    "population": "7623",
    "population_proper": "7623"
  },
  {
    "city": "Goranboy",
    "lat": "40.6103",
    "lng": "46.7897",
    "country": "Azerbaijan",
    "iso2": "AZ",
    "admin_name": "Goranboy",
    "capital": "admin",
    "population": "7400",
    "population_proper": "7400"
  },
  {
    "city": "Lerik",
    "lat": "38.7753",
    "lng": "48.4153",
    "country": "Azerbaijan",
    "iso2": "AZ",
    "admin_name": "Lerik",
    "capital": "admin",
    "population": "7301",
    "population_proper": "7301"
  },
  {
    "city": "Kəlbəcər",
    "lat": "40.1067",
    "lng": "46.0383",
    "country": "Azerbaijan",
    "iso2": "AZ",
    "admin_name": "Kəlbəcər",
    "capital": "admin",
    "population": "7246",
    "population_proper": "7246"
  },
  {
    "city": "Oğuz",
    "lat": "41.0708",
    "lng": "47.4583",
    "country": "Azerbaijan",
    "iso2": "AZ",
    "admin_name": "Oğuz",
    "capital": "admin",
    "population": "6876",
    "population_proper": "1262"
  },
  {
    "city": "Cəbrayıl",
    "lat": "39.4000",
    "lng": "47.0261",
    "country": "Azerbaijan",
    "iso2": "AZ",
    "admin_name": "Cəbrayıl",
    "capital": "admin",
    "population": "6070",
    "population_proper": "6070"
  },
  {
    "city": "Xocavənd",
    "lat": "39.7953",
    "lng": "47.1131",
    "country": "Azerbaijan",
    "iso2": "AZ",
    "admin_name": "Xocavənd",
    "capital": "admin",
    "population": "5700",
    "population_proper": "5700"
  },
  {
    "city": "Babək",
    "lat": "39.1519",
    "lng": "45.4417",
    "country": "Azerbaijan",
    "iso2": "AZ",
    "admin_name": "Babək",
    "capital": "admin",
    "population": "5600",
    "population_proper": "5600"
  },
  {
    "city": "Şuşa",
    "lat": "39.7583",
    "lng": "46.7483",
    "country": "Azerbaijan",
    "iso2": "AZ",
    "admin_name": "Şuşa",
    "capital": "admin",
    "population": "4446",
    "population_proper": "4446"
  },
  {
    "city": "Qıvraq",
    "lat": "39.3997",
    "lng": "45.1131",
    "country": "Azerbaijan",
    "iso2": "AZ",
    "admin_name": "Kəngərli",
    "capital": "admin",
    "population": "4444",
    "population_proper": "4444"
  },
  {
    "city": "Qobustan",
    "lat": "40.5367",
    "lng": "48.9328",
    "country": "Azerbaijan",
    "iso2": "AZ",
    "admin_name": "Qobustan",
    "capital": "admin",
    "population": "3945",
    "population_proper": "3945"
  },
  {
    "city": "Ağdam",
    "lat": "39.9833",
    "lng": "46.9167",
    "country": "Azerbaijan",
    "iso2": "AZ",
    "admin_name": "Ağdam",
    "capital": "admin",
    "population": "3770",
    "population_proper": "3770"
  },
  {
    "city": "Şahbuz",
    "lat": "39.4072",
    "lng": "45.5739",
    "country": "Azerbaijan",
    "iso2": "AZ",
    "admin_name": "Şahbuz",
    "capital": "admin",
    "population": "3127",
    "population_proper": "2283"
  },
  {
    "city": "Laçın",
    "lat": "39.6408",
    "lng": "46.5469",
    "country": "Azerbaijan",
    "iso2": "AZ",
    "admin_name": "Laçın",
    "capital": "admin",
    "population": "2190",
    "population_proper": "2190"
  },
  {
    "city": "Heydərabad",
    "lat": "39.7203",
    "lng": "44.8531",
    "country": "Azerbaijan",
    "iso2": "AZ",
    "admin_name": "Sədərək",
    "capital": "admin",
    "population": "2000",
    "population_proper": "2000"
  },
  {
    "city": "Xızı",
    "lat": "40.9078",
    "lng": "49.0733",
    "country": "Azerbaijan",
    "iso2": "AZ",
    "admin_name": "Xızı",
    "capital": "admin",
    "population": "1600",
    "population_proper": "1600"
  },
  {
    "city": "Xocalı",
    "lat": "39.9111",
    "lng": "46.7892",
    "country": "Azerbaijan",
    "iso2": "AZ",
    "admin_name": "Xocalı",
    "capital": "admin",
    "population": "1397",
    "population_proper": "1397"
  },
  {
    "city": "Qubadlı",
    "lat": "39.3439",
    "lng": "46.5797",
    "country": "Azerbaijan",
    "iso2": "AZ",
    "admin_name": "Qubadlı",
    "capital": "admin",
    "population": "672",
    "population_proper": "672"
  },
  {
    "city": "Şərur",
    "lat": "39.5544",
    "lng": "44.9826",
    "country": "Azerbaijan",
    "iso2": "AZ",
    "admin_name": "Şərur",
    "capital": "admin",
    "population": "",
    "population_proper": ""
  },
  {
    "city": "Qəbələ",
    "lat": "40.9825",
    "lng": "47.8491",
    "country": "Azerbaijan",
    "iso2": "AZ",
    "admin_name": "Qəbələ",
    "capital": "admin",
    "population": "",
    "population_proper": ""
  },
  {
    "city": "Dəvəçi",
    "lat": "41.2012",
    "lng": "48.9871",
    "country": "Azerbaijan",
    "iso2": "AZ",
    "admin_name": "Şabran",
    "capital": "admin",
    "population": "",
    "population_proper": ""
  },
  {
    "city": "Zəngilan",
    "lat": "40.0528",
    "lng": "47.4614",
    "country": "Azerbaijan",
    "iso2": "AZ",
    "admin_name": "Zəngilan",
    "capital": "admin",
    "population": "136000",
    "population_proper": "136000"
  }
]
